[
{
    "model": "app.hospital",
    "pk": 1,
    "fields": {
        "name": "Bir Hospital",
        "location": "Kathmandu",
        "latitude": "27.7051958",
        "longitude": "85.3137840",
        "phone": "",
        "description": "",
        "images": "BirHospital.jpg",
        "website": ""
    }
},
{
    "model": "app.hospital",
    "pk": 2,
    "fields": {
        "name": "T.U. Teaching Hospital",
        "location": "Kathmandu",
        "latitude": "27.7359459",
        "longitude": "85.3310189",
        "phone": "",
        "description": "",
        "images": "TUTeachingHospital.jpg",
        "website": ""
    }
},
{
    "model": "app.hospital",
    "pk": 3,
    "fields": {
        "name": "Patan Academy of Health Sciences",
        "location": "Lalitpur",
        "latitude": "27.6812802",
        "longitude": "85.3055966",
        "phone": "",
        "description": "",
        "images": "PatanHospital.jpg",
        "website": ""
    }
},
{
    "model": "app.hospital",
    "pk": 4,
    "fields": {
        "name": "Kanti Children's Hospital",
        "location": "Kathmandu",
        "latitude": "27.7346864",
        "longitude": "85.3258972",
        "phone": "",
        "description": "",
        "images": "KantiChildrensHospital.jpg",
        "website": ""
    }
},
{
    "model": "app.hospital",
    "pk": 5,
    "fields": {
        "name": "Tilganga Institute of Ophthalmology",
        "location": "Kathmandu",
        "latitude": "27.7056677",
        "longitude": "85.3479650",
        "phone": "",
        "description": "",
        "images": "TilgangaEyeHospital.jpg",
        "website": ""
    }
},
{
    "model": "app.hospital",
    "pk": 6,
    "fields": {
        "name": "Manmohan Cardiothoracic Vascular and Transplant Center",
        "location": "Kathmandu",
        "latitude": "27.7358337",
        "longitude": "85.3261908",
        "phone": "",
        "description": "",
        "images": "Manmohan-Cardiothoracic-Vascular-and-Transplant-Center.jpg",
        "website": ""
    }
},
{
    "model": "app.hospital",
    "pk": 7,
    "fields": {
        "name": "Nepal Mediciti Hospital",
        "location": "Lalitpur",
        "latitude": "27.6623271",
        "longitude": "85.3026856",
        "phone": "",
        "description": "",
        "images": "Nepal-Mediciti-Hospital.jpg",
        "website": ""
    }
},
{
    "model": "app.hospital",
    "pk": 8,
    "fields": {
        "name": "Grande International Hospital",
        "location": "Kathmandu",
        "latitude": "27.7529441",
        "longitude": "85.3253103",
        "phone": "",
        "description": "",
        "images": "GrandeHospital.jpg",
        "website": ""
    }
},
{
    "model": "app.hospital",
    "pk": 9,
    "fields": {
        "name": "Norvic International Hospital",
        "location": "Kathmandu",
        "latitude": "27.6893068",
        "longitude": "85.3200625",
        "phone": "",
        "description": "",
        "images": "norvic-international-hospital.jpg",
        "website": ""
    }
},
{
    "model": "app.hospital",
    "pk": 10,
    "fields": {
        "name": "Om Hospital & Research Centre Pvt. Ltd.",
        "location": "Kathmandu",
        "latitude": "27.7214250",
        "longitude": "85.3422295",
        "phone": "",
        "description": "",
        "images": "Om-Hospital-and-Research-Center.jpg",
        "website": ""
    }
},
{
    "model": "app.hospital",
    "pk": 11,
    "fields": {
        "name": "Civil Service Hospital",
        "location": "Kathmandu",
        "latitude": "27.6864368",
        "longitude": "85.3389249",
        "phone": "",
        "description": "",
        "images": "CivilHospital.jpg",
        "website": ""
    }
},
{
    "model": "app.hospital",
    "pk": 12,
    "fields": {
        "name": "Bhaktapur Cancer Hospital",
        "location": "Bhaktapur",
        "latitude": "27.6731786",
        "longitude": "85.4197464",
        "phone": "",
        "description": "",
        "images": "BhaktapurCancerHospital.jpg",
        "website": ""
    }
},
{
    "model": "app.hospital",
    "pk": 13,
    "fields": {
        "name": "Bhaktapur Hospital",
        "location": "Bhaktapur",
        "latitude": "27.6720774",
        "longitude": "85.4220862",
        "phone": "",
        "description": "",
        "images": "Bhaktapur-Hospital.jpg",
        "website": ""
    }
},
{
    "model": "app.hospital",
    "pk": 14,
    "fields": {
        "name": "B.P. Koirala Institute of Health Sciences",
        "location": "Sunsari",
        "latitude": "26.8122466",
        "longitude": "87.2657860",
        "phone": "",
        "description": "",
        "images": "BPHospital.jpg",
        "website": ""
    }
},
{
    "model": "app.hospital",
    "pk": 15,
    "fields": {
        "name": "Koshi Hospital",
        "location": "Morang",
        "latitude": "26.4592298",
        "longitude": "87.2839331",
        "phone": "",
        "description": "",
        "images": "Koshi-Hospital.jpg",
        "website": ""
    }
},
{
    "model": "app.hospital",
    "pk": 16,
    "fields": {
        "name": "Medanta ortho and neuro care centre",
        "location": "Lalitpur",
        "latitude": "27.6878172",
        "longitude": "85.3139626",
        "phone": "",
        "description": "",
        "images": "Medanta-ortho-and-neuro.jpg",
        "website": ""
    }
},
{
    "model": "app.hospital",
    "pk": 17,
    "fields": {
        "name": "Star Hospital",
        "location": "Lalitpur",
        "latitude": "27.6811723",
        "longitude": "85.3027640",
        "phone": "",
        "description": "",
        "images": "star-hospital.png",
        "website": ""
    }
},
{
    "model": "app.hospital",
    "pk": 18,
    "fields": {
        "name": "Alka Hospital",
        "location": "Lalitpur",
        "latitude": "27.6741922",
        "longitude": "85.3151018",
        "phone": "",
        "description": "",
        "images": "AlkaHospital.jpg",
        "website": ""
    }
},
{
    "model": "app.hospital",
    "pk": 19,
    "fields": {
        "name": "Paropakar Maternity & Women's Hospital",
        "location": "Kathmandu",
        "latitude": "27.6894622",
        "longitude": "85.3152635",
        "phone": "",
        "description": "",
        "images": "Paropakar_Maternity_and_Women,s_Hospital.jpg",
        "website": ""
    }
},
{
    "model": "app.hospital",
    "pk": 20,
    "fields": {
        "name": "Chitwan Medical College (CMC)",
        "location": "Chitwan",
        "latitude": "27.6852962",
        "longitude": "84.4304187",
        "phone": "",
        "description": "",
        "images": "CMCHospital.jpg",
        "website": ""
    }
},
{
    "model": "app.hospital",
    "pk": 21,
    "fields": {
        "name": "Bharatpur Hospital",
        "location": "Chitwan",
        "latitude": "27.6818245",
        "longitude": "84.4364771",
        "phone": "",
        "description": "",
        "images": "bharatpur_hospital.jpg",
        "website": ""
    }
},
{
    "model": "app.hospital",
    "pk": 22,
    "fields": {
        "name": "College Of Medical Sciences (CMS)",
        "location": "Chitwan",
        "latitude": "27.6836399",
        "longitude": "84.4360595",
        "phone": "",
        "description": "",
        "images": "CMS.jpg",
        "website": ""
    }
},
{
    "model": "app.hospital",
    "pk": 23,
    "fields": {
        "name": "B.P. Koirala Memorial Cancer Hospital",
        "location": "Chitwan",
        "latitude": "27.6649260",
        "longitude": "84.4176559",
        "phone": "",
        "description": "",
        "images": "BP-Koirala-Memorial-Cancer-Hospital.jpg",
        "website": ""
    }
},
{
    "model": "app.hospital",
    "pk": 24,
    "fields": {
        "name": "Shahid Dharmabhakta National Transplant Center",
        "location": "Bhaktapur",
        "latitude": "27.6726644",
        "longitude": "85.4194517",
        "phone": "",
        "description": "",
        "images": "Shahid-Dharmabhakta.jpg",
        "website": ""
    }
},
{
    "model": "app.hospital",
    "pk": 25,
    "fields": {
        "name": "National Trauma Center",
        "location": "Kathmandu",
        "latitude": "27.7043028",
        "longitude": "85.3130677",
        "phone": "",
        "description": "",
        "images": "national-trauma-center.jpg",
        "website": ""
    }
},
{
    "model": "app.hospital",
    "pk": 26,
    "fields": {
        "name": "Gangalal Heart Centre",
        "location": "Kathmandu",
        "latitude": "27.7458286",
        "longitude": "85.3437156",
        "phone": "",
        "description": "",
        "images": "Shahid_Gangalal_Heart.jpg",
        "website": ""
    }
},
{
    "model": "app.hospital",
    "pk": 27,
    "fields": {
        "name": "Western Regional Hospital",
        "location": "Kaski",
        "latitude": "28.2127095",
        "longitude": "83.9983555",
        "phone": "",
        "description": "",
        "images": "Western-Regional-Hospital.jpg",
        "website": ""
    }
},
{
    "model": "app.hospital",
    "pk": 28,
    "fields": {
        "name": "Gandaki Medical College",
        "location": "Kaski",
        "latitude": "28.2111235",
        "longitude": "83.9870112",
        "phone": "",
        "description": "",
        "images": "gandaki-medical-college.jpg",
        "website": ""
    }
},
{
    "model": "app.hospital",
    "pk": 29,
    "fields": {
        "name": "Nepal Manipal Teaching Hospital",
        "location": "Kaski",
        "latitude": "28.2360164",
        "longitude": "83.9946116",
        "phone": "",
        "description": "",
        "images": "Manipal-Teaching-Hospital.jpg",
        "website": ""
    }
},
{
    "model": "app.hospital",
    "pk": 30,
    "fields": {
        "name": "Bharatpur Eye Hospital",
        "location": "Chitwan",
        "latitude": "27.6849810",
        "longitude": "84.4360788",
        "phone": "",
        "description": "",
        "images": "bharatpur-eye-hospital.jpg",
        "website": ""
    }
},
{
    "model": "app.hospital",
    "pk": 31,
    "fields": {
        "name": "Lumbini Provincial Hospital",
        "location": "Rupandehi",
        "latitude": "27.6978312",
        "longitude": "83.4640119",
        "phone": "",
        "description": "",
        "images": "lumbini-province-hospital.jpg",
        "website": ""
    }
},
{
    "model": "app.hospital",
    "pk": 32,
    "fields": {
        "name": "Bheri Hospital",
        "location": "Banke",
        "latitude": "28.0530107",
        "longitude": "81.6198579",
        "phone": "",
        "description": "",
        "images": "Bheri-Hospital.jpg",
        "website": ""
    }
},
{
    "model": "app.hospital",
    "pk": 33,
    "fields": {
        "name": "Nepalgunj Medical College (NGMC)",
        "location": "Banke",
        "latitude": "28.1983215",
        "longitude": "81.6769993",
        "phone": "",
        "description": "",
        "images": "nepalgunj-medical-college.jpg",
        "website": ""
    }
},
{
    "model": "app.hospital",
    "pk": 34,
    "fields": {
        "name": "Dadeldhura Hospital",
        "location": "Dadeldhura",
        "latitude": "29.3046014",
        "longitude": "80.5892269",
        "phone": "",
        "description": "",
        "images": "dadeldhura-hospital.jpg",
        "website": ""
    }
},
{
    "model": "app.hospital",
    "pk": 35,
    "fields": {
        "name": "Seti province hospital",
        "location": "Kailali",
        "latitude": "28.7038863",
        "longitude": "80.5875967",
        "phone": "",
        "description": "",
        "images": "SetiProvincialHospital.jpg",
        "website": ""
    }
},
{
    "model": "app.hospital",
    "pk": 36,
    "fields": {
        "name": "Mahakali Provincial Hospital",
        "location": "Kanchanpur",
        "latitude": "28.9639564",
        "longitude": "80.1846428",
        "phone": "",
        "description": "",
        "images": "MAHAKALI-HOSPITAL.jpg",
        "website": ""
    }
},
{
    "model": "app.hospital",
    "pk": 37,
    "fields": {
        "name": "Tikapur Hospital",
        "location": "Kailali",
        "latitude": "28.5343424",
        "longitude": "81.1205692",
        "phone": "",
        "description": "",
        "images": "tikapur-hospital.jpg",
        "website": ""
    }
},
{
    "model": "app.hospital",
    "pk": 38,
    "fields": {
        "name": "Rapti Academy of Health Sciences",
        "location": "Dang",
        "latitude": "28.0372777",
        "longitude": "82.4913576",
        "phone": "",
        "description": "",
        "images": "RAHS.jpg",
        "website": ""
    }
},
{
    "model": "app.hospital",
    "pk": 39,
    "fields": {
        "name": "Rolpa Hospital",
        "location": "Rolpa",
        "latitude": "28.3224217",
        "longitude": "82.6156450",
        "phone": "",
        "description": "",
        "images": "rolpa-hospital.jpg",
        "website": ""
    }
},
{
    "model": "app.hospital",
    "pk": 40,
    "fields": {
        "name": "Salyan Hospital",
        "location": "Salyan",
        "latitude": "28.3731611",
        "longitude": "82.1699688",
        "phone": "",
        "description": "",
        "images": "salyan-hospital.jpg",
        "website": ""
    }
},
{
    "model": "app.hospital",
    "pk": 41,
    "fields": {
        "name": "Karnali Provincial Hospital",
        "location": "Surkhet",
        "latitude": "28.6041811",
        "longitude": "81.6000325",
        "phone": "",
        "description": "",
        "images": "karnali-province-hospital.jpg",
        "website": ""
    }
},
{
    "model": "app.hospital",
    "pk": 42,
    "fields": {
        "name": "Teaching Hospital Jumla",
        "location": "Jumla",
        "latitude": "29.2835190",
        "longitude": "82.1829151",
        "phone": "",
        "description": "",
        "images": "teaching-hospital-jumla.jpg",
        "website": ""
    }
},
{
    "model": "app.hospital",
    "pk": 43,
    "fields": {
        "name": "Mugu District Hospital",
        "location": "Mugu",
        "latitude": "29.5517687",
        "longitude": "82.1570682",
        "phone": "",
        "description": "",
        "images": "mugu-district-hospital.jpg",
        "website": ""
    }
},
{
    "model": "app.hospital",
    "pk": 44,
    "fields": {
        "name": "Humla District Hospital",
        "location": "Humla",
        "latitude": "29.9671572",
        "longitude": "81.8215370",
        "phone": "",
        "description": "",
        "images": "humla-district-hospital.jpg",
        "website": ""
    }
},
{
    "model": "app.hospital",
    "pk": 45,
    "fields": {
        "name": "Kalikot District Hospital",
        "location": "Kalikot",
        "latitude": "29.1477544",
        "longitude": "81.5931775",
        "phone": "",
        "description": "",
        "images": "kalikot-district-hospital.jpg",
        "website": ""
    }
},
{
    "model": "app.hospital",
    "pk": 46,
    "fields": {
        "name": "District Hospital Dailekh",
        "location": "Dailekh",
        "latitude": "28.8269710",
        "longitude": "81.7097690",
        "phone": "",
        "description": "",
        "images": "district-hospital-dailekh.png",
        "website": ""
    }
},
{
    "model": "app.hospital",
    "pk": 47,
    "fields": {
        "name": "District Hospital Achham",
        "location": "Achham",
        "latitude": "29.1351072",
        "longitude": "81.2575308",
        "phone": "",
        "description": "",
        "images": "district-hospital-achham.jpg",
        "website": ""
    }
},
{
    "model": "app.hospital",
    "pk": 48,
    "fields": {
        "name": "Doti District Hospital",
        "location": "Doti",
        "latitude": "29.2703318",
        "longitude": "80.9870702",
        "phone": "",
        "description": "",
        "images": "Doti-district-hospital.png",
        "website": ""
    }
},
{
    "model": "app.hospital",
    "pk": 49,
    "fields": {
        "name": "District Hospital Baitadi",
        "location": "Baitadi",
        "latitude": "29.5594931",
        "longitude": "80.4179696",
        "phone": "",
        "description": "",
        "images": "district-hospital-baitadi.jpg",
        "website": ""
    }
},
{
    "model": "app.hospital",
    "pk": 50,
    "fields": {
        "name": "Darchula District Hospital",
        "location": "Darchula",
        "latitude": "29.8368577",
        "longitude": "80.5340077",
        "phone": "",
        "description": "",
        "images": "darchula-district-hospital.jpg",
        "website": ""
    }
},
{
    "model": "app.hospital",
    "pk": 51,
    "fields": {
        "name": "Bajhang District Hospital",
        "location": "Bajhang",
        "latitude": "29.5477593",
        "longitude": "81.1928590",
        "phone": "",
        "description": "",
        "images": "district-hospital-bajhang.jpg",
        "website": ""
    }
},
{
    "model": "app.hospital",
    "pk": 52,
    "fields": {
        "name": "District Hospital Bajura",
        "location": "Bajura",
        "latitude": "29.4592294",
        "longitude": "81.4810039",
        "phone": "",
        "description": "",
        "images": "district-hospital-bajura.jpg",
        "website": ""
    }
},
{
    "model": "app.hospital",
    "pk": 53,
    "fields": {
        "name": "Gulmi Hospital",
        "location": "Gulmi",
        "latitude": "28.0682566",
        "longitude": "83.2481452",
        "phone": "",
        "description": "",
        "images": "gulmi-hospital.jpg",
        "website": ""
    }
},
{
    "model": "app.hospital",
    "pk": 54,
    "fields": {
        "name": "Arghakhanchi District Hospital",
        "location": "Arghakhanchi",
        "latitude": "27.9645728",
        "longitude": "83.1261656",
        "phone": "",
        "description": "",
        "images": "arghakhanchi-hospital.jpg",
        "website": ""
    }
},
{
    "model": "app.hospital",
    "pk": 55,
    "fields": {
        "name": "District Hospital Palpa",
        "location": "Palpa",
        "latitude": "27.8663004",
        "longitude": "83.5417948",
        "phone": "",
        "description": "",
        "images": "district-hospital-palpa.jpg",
        "website": ""
    }
},
{
    "model": "app.hospital",
    "pk": 56,
    "fields": {
        "name": "Province Hospital Syangja",
        "location": "Syangja",
        "latitude": "28.1052139",
        "longitude": "83.8728467",
        "phone": "",
        "description": "",
        "images": "province-hospital-syangja.jpg",
        "website": ""
    }
},
{
    "model": "app.hospital",
    "pk": 57,
    "fields": {
        "name": "Provincial Hospital Lahan",
        "location": "Lahan",
        "latitude": "26.7088119",
        "longitude": "86.4927211",
        "phone": "",
        "description": "",
        "images": "Provincial-Hospital-Lahan.jpg",
        "website": ""
    }
},
{
    "model": "app.hospital",
    "pk": 58,
    "fields": {
        "name": "Provincial Hospital Gaur",
        "location": "Rautahat",
        "latitude": "26.7651812",
        "longitude": "85.2737442",
        "phone": "",
        "description": "",
        "images": "provincial-hospital-gaur.jpg",
        "website": ""
    }
},
{
    "model": "app.hospital",
    "pk": 59,
    "fields": {
        "name": "Madhesh Institute Of Health Sciences",
        "location": "Dhanusha",
        "latitude": "26.7566464",
        "longitude": "85.9175933",
        "phone": "",
        "description": "",
        "images": "mihs.jpg",
        "website": ""
    }
},
{
    "model": "app.hospital",
    "pk": 60,
    "fields": {
        "name": "Janaki Medical College and Teaching Hospital",
        "location": "Dhanusha",
        "latitude": "26.8152397",
        "longitude": "85.9528825",
        "phone": "",
        "description": "",
        "images": "Janaki-Medical-College-and-Teaching-Hospital.jpg",
        "website": ""
    }
},
{
    "model": "app.hospital",
    "pk": 61,
    "fields": {
        "name": "Provincial Hospital Siraha",
        "location": "Siraha",
        "latitude": "26.6585080",
        "longitude": "86.2105919",
        "phone": "",
        "description": "",
        "images": "provincial-hospital-siraha.jpg",
        "website": ""
    }
},
{
    "model": "app.hospital",
    "pk": 62,
    "fields": {
        "name": "District Hospital Udayapur",
        "location": "Udayapur",
        "latitude": "26.7976801",
        "longitude": "86.6949791",
        "phone": "",
        "description": "",
        "images": "district-hospital-udayepur.jpg",
        "website": ""
    }
},
{
    "model": "app.hospital",
    "pk": 63,
    "fields": {
        "name": "Dhankuta District Hospital",
        "location": "Dhankuta",
        "latitude": "26.9720996",
        "longitude": "87.3432507",
        "phone": "",
        "description": "",
        "images": "dhankuta-district-hospital.jpg",
        "website": ""
    }
},
{
    "model": "app.hospital",
    "pk": 64,
    "fields": {
        "name": "Bhojpur District Hospital",
        "location": "Bhojpur",
        "latitude": "27.1614977",
        "longitude": "87.0514834",
        "phone": "",
        "description": "",
        "images": "bhojpur-district-hospital.jpg",
        "website": ""
    }
},
{
    "model": "app.hospital",
    "pk": 65,
    "fields": {
        "name": "Tehrathum District Hospital",
        "location": "Terhathum",
        "latitude": "27.1285413",
        "longitude": "87.5340480",
        "phone": "",
        "description": "",
        "images": "tehrathum-district-hospital.jpg",
        "website": ""
    }
},
{
    "model": "app.hospital",
    "pk": 66,
    "fields": {
        "name": "Panchthar District Hospital",
        "location": "Panchthar",
        "latitude": "27.1488725",
        "longitude": "87.7669995",
        "phone": "",
        "description": "",
        "images": "panchthar-district-hospital.jpg",
        "website": ""
    }
},
{
    "model": "app.hospital",
    "pk": 67,
    "fields": {
        "name": "District Hospital Ilam",
        "location": "Ilam",
        "latitude": "26.9097971",
        "longitude": "87.9255334",
        "phone": "",
        "description": "",
        "images": "district-hospital-illam.jpg",
        "website": ""
    }
},
{
    "model": "app.hospital",
    "pk": 68,
    "fields": {
        "name": "Madhyabindu Provincial Hospital",
        "location": "Nawalparasi (East of Bardaghat Susta)",
        "latitude": "27.6294178",
        "longitude": "84.0933564",
        "phone": "",
        "description": "",
        "images": "madhyabindu-provincial-hospital.jpg",
        "website": ""
    }
},
{
    "model": "app.hospital",
    "pk": 69,
    "fields": {
        "name": "Devchuli Nagar Hospital",
        "location": "Nawalparasi (West of Bardaghat Susta)",
        "latitude": "27.6739977",
        "longitude": "84.2047783",
        "phone": "",
        "description": "",
        "images": "devchuli-nagar-hospital.jpg",
        "website": ""
    }
},
{
    "model": "app.hospital",
    "pk": 70,
    "fields": {
        "name": "Chautara Hospital",
        "location": "Sindhupalchok ",
        "latitude": "27.7809354",
        "longitude": "85.7108937",
        "phone": "",
        "description": "",
        "images": "chautara-hospital.jpg",
        "website": ""
    }
}
]
